City_ID,City,Lat,Lng,Max Temp,Humidity,Cloudiness,Wind Speed,Country,Date
0,san luis,-33.295,-66.3356,8.47,40,0,1.02,AR,1748465566
1,port-vila,-17.7338,168.3219,21.78,88,20,3.09,VU,1748465567
2,zhytkavichy,52.2168,27.8561,13.09,98,59,2.83,BY,1748465568
3,adamstown,-25.066,-130.1015,21.56,57,65,7.6,PN,1748465569
4,nar'yan-mar,67.6713,53.087,10.03,75,21,3.02,RU,1748465570
5,edinburgh of the seven seas,-37.0676,-12.3116,14.1,73,77,8.71,SH,1748465571
6,bochum,51.4833,7.2167,12.27,82,5,2.1,DE,1748465357
7,puerto natales,-51.7236,-72.4875,5.75,89,99,3.26,CL,1748465573
8,kudahuvadhoo,2.6708,72.8944,28.64,75,100,8.53,MV,1748465574
9,yujing,23.1249,120.4614,24.29,95,92,1.81,TW,1748465575
10,namibe,-15.1961,12.1522,22.29,65,0,0.87,AO,1748465576
11,greymouth,-42.4667,171.2,9.44,93,33,3.13,NZ,1748465577
12,tolanaro,-25.0319,46.9987,20.04,88,20,0.0,MG,1748465578
13,tiksi,71.6872,128.8694,0.57,99,100,1.34,RU,1748465579
14,bilibino,68.0546,166.4372,0.11,68,25,0.84,RU,1748465581
15,bredasdorp,-34.5322,20.0403,17.32,67,50,8.49,ZA,1748465582
16,hasaki,35.7333,140.8333,17.4,67,100,2.52,JP,1748465583
17,sinop,41.7711,34.8709,12.33,70,48,2.88,TR,1748465584
18,kondopoga,62.2057,34.2614,13.54,97,100,1.65,RU,1748465585
19,osakarovka,50.565,72.5692,12.54,61,95,3.26,KZ,1748465586
20,hamilton,39.1834,-84.5333,18.69,89,100,3.09,US,1748465588
21,atafu village,-8.5421,-172.5159,28.98,78,98,7.95,TK,1748465589
22,key west,24.5557,-81.7826,33.0,70,0,5.14,US,1748465590
23,bethel,41.3712,-73.414,18.88,55,100,4.63,US,1748465591
24,ushuaia,-54.8,-68.3,2.81,75,20,1.54,AR,1748465592
25,grytviken,-54.2811,-36.5092,1.73,96,100,8.44,GS,1748465593
26,port-aux-francais,-49.35,70.2167,3.94,69,41,14.07,TF,1748465595
27,whitehorse,60.7161,-135.0538,10.57,87,100,2.06,CA,1748465597
28,serres,41.0856,23.5497,15.37,74,1,1.38,GR,1748465598
29,mandal,25.45,74.5667,32.09,40,100,5.49,IN,1748465599
30,stanley,54.868,-1.6985,12.91,69,0,2.06,GB,1748465600
31,weatherford,32.7593,-97.7972,26.07,73,25,2.24,US,1748465601
32,albany,42.6001,-73.9662,23.77,47,100,1.34,US,1748465602
33,gisborne,-38.6533,178.0042,14.45,78,32,1.71,NZ,1748465450
34,tanumah,27.1,44.1333,32.14,12,0,6.78,SA,1748465604
35,yellowknife,62.456,-114.3525,23.29,23,20,4.63,CA,1748465605
36,olyokminsk,60.3736,120.4264,9.58,76,100,4.93,RU,1748465606
37,topeka,39.0483,-95.678,21.94,58,100,1.34,US,1748465608
38,olonkinbyen,70.9221,-8.7187,-0.96,79,68,1.46,SJ,1748465609
39,puerto aysen,-45.4,-72.7,6.95,99,100,1.57,CL,1748465610
40,phang nga,8.4509,98.5298,24.91,95,100,1.34,TH,1748465611
41,georgetown,5.4112,100.3354,28.97,84,20,1.03,MY,1748465612
42,ribeira grande,38.5167,-28.7,19.32,94,75,8.75,PT,1748465613
43,college,64.8569,-147.8028,13.99,50,75,1.54,US,1748465614
44,kapa'a,22.0752,-159.319,27.18,73,20,4.12,US,1748465616
45,porbandar,21.6422,69.6093,28.62,82,88,4.67,IN,1748465617
46,tofol,5.3248,163.0078,28.22,79,97,7.43,FM,1748465618
47,cumana,10.4635,-64.1775,27.55,76,10,7.86,VE,1748465620
48,karratha,-20.7377,116.8463,23.27,74,30,7.72,AU,1748465621
49,san luis de la loma,17.2706,-100.8939,29.1,67,100,2.49,MX,1748465622
50,alesund,62.4723,6.1549,10.97,81,75,6.17,NO,1748465623
51,waitangi,-43.9535,-176.5597,15.42,87,100,14.45,NZ,1748465624
52,porto novo,6.4965,2.6036,25.9,80,97,3.29,BJ,1748465625
53,dudinka,69.4058,86.1778,-13.92,99,84,0.15,RU,1748465626
54,nemuro,43.3236,145.575,8.93,92,96,5.19,JP,1748465627
55,hermanus,-34.4187,19.2345,17.11,82,81,10.04,ZA,1748465628
56,longyearbyen,78.2186,15.6401,0.91,75,75,6.17,SJ,1748465629
57,north battleford,52.7834,-108.2847,28.05,30,0,1.03,CA,1748465630
58,dali,25.7,100.1833,16.19,99,100,1.35,CN,1748465631
59,ra's bayrut,33.9,35.4833,21.81,64,40,5.66,LB,1748465632
60,ayutla de los libres,16.9,-99.2167,27.77,69,100,1.05,MX,1748465634
61,jaguey grande,22.5269,-81.1286,34.87,36,48,2.16,CU,1748465635
62,nova sintra,14.8667,-24.7167,23.68,79,2,10.81,CV,1748465636
63,chibougamau,49.9168,-74.3659,24.79,16,0,4.63,CA,1748465637
64,vorgashor,67.5833,63.95,2.96,88,64,5.68,RU,1748465638
65,kodiak,57.79,-152.4072,8.73,81,100,2.06,US,1748465589
66,wailua homesteads,22.0669,-159.378,26.44,73,20,4.12,US,1748465640
67,adjumani,3.3779,31.7909,20.38,88,100,1.23,UG,1748465641
68,copala,16.65,-98.9833,30.39,60,100,2.73,MX,1748465642
69,suntar,62.1444,117.6319,6.7,87,100,3.85,RU,1748465643
70,bubaque,11.2833,-15.8333,25.95,89,79,6.47,GW,1748465644
71,papao,-17.75,-149.55,28.82,82,30,9.66,PF,1748465645
72,guerrero negro,27.9769,-114.0611,20.27,57,52,7.52,MX,1748465646
73,kapuskasing,49.4169,-82.4331,27.05,16,20,2.57,CA,1748465648
74,port elizabeth,-33.918,25.5701,20.16,89,0,7.72,ZA,1748465649
75,slave lake,55.2834,-114.769,27.99,23,0,5.14,CA,1748465650
76,kasempa,-13.4584,25.8338,16.94,58,68,2.09,ZM,1748465651
77,fisterra,42.9049,-9.2629,16.43,81,7,7.47,ES,1748465652
78,lagunas,-5.2269,-75.6753,27.82,91,51,0.88,PE,1748465653
79,klaksvik,62.2266,-6.589,8.81,80,9,7.12,FO,1748465654
80,kashgar,39.4547,75.9797,14.56,82,40,2.0,CN,1748465655
81,mili,6.0815,171.735,27.82,81,76,7.92,MH,1748465656
82,aasiaat,68.7098,-52.8699,1.62,81,88,3.98,GL,1748465657
83,okha,53.5739,142.9478,3.91,96,100,5.87,RU,1748465658
84,haiku-pauwela,20.9219,-156.3051,26.23,65,20,9.83,US,1748465659
85,jamestown,42.097,-79.2353,12.8,100,100,6.17,US,1748465660
86,lata,40.1629,-8.3327,14.72,75,0,0.79,PT,1748465661
87,sao jose da coroa grande,-8.8978,-35.1478,25.55,83,9,2.63,BR,1748465663
88,mabaruma,8.2,-59.7833,24.67,89,78,2.21,GY,1748465664
89,pacific grove,36.6177,-121.9166,14.82,87,100,5.66,US,1748465665
90,shibetsu,43.659,145.132,10.68,90,100,4.26,JP,1748465666
91,kununurra,-15.7667,128.7333,18.99,82,100,3.6,AU,1748465667
92,deir ez-zor,35.3359,40.1408,24.29,33,0,6.61,SY,1748465668
93,charters towers,-20.1,146.2667,20.09,92,100,3.16,AU,1748465669
94,avarua,-21.2078,-159.775,27.03,94,75,2.57,CK,1748465565
95,kargil,34.5667,76.1,7.0,49,4,2.49,IN,1748465671
96,alotau,-10.3069,150.4462,24.24,93,76,1.31,PG,1748465672
97,ghat,24.9647,10.1728,31.27,16,3,5.83,LY,1748465673
98,hadibu,12.65,54.0333,27.69,80,81,7.45,YE,1748465674
99,tralee,52.2704,-9.7026,13.12,95,100,3.53,IE,1748465675
100,ciutadella,40.0011,3.8414,21.14,73,4,0.89,ES,1748465677
101,invercargill,-46.4,168.35,9.45,94,100,2.24,NZ,1748465678
102,fort bragg,35.139,-79.006,27.6,71,20,3.09,US,1748465679
103,lompoc,34.6391,-120.4579,16.23,74,75,6.69,US,1748465553
104,port mathurin,-19.6833,63.4167,24.94,64,20,8.4,MU,1748465681
105,kushk,33.2957,61.9522,20.58,20,0,9.23,AF,1748465682
106,quellon,-43.1167,-73.6167,8.26,90,100,5.02,CL,1748465683
107,papatowai,-46.5619,169.4708,9.83,92,100,3.22,NZ,1748465684
108,hotan,37.0997,79.9269,19.64,35,100,3.62,CN,1748465685
109,uturoa,-16.7333,-151.4333,27.65,78,17,8.42,PF,1748465686
110,punta arenas,-53.15,-70.9167,3.06,87,75,0.51,CL,1748465689
111,payyannur,12.1,75.2,24.6,95,100,5.0,IN,1748465690
112,bulgan,48.8125,103.5347,1.44,90,88,2.63,MN,1748465691
113,peniche,39.3558,-9.3811,17.89,87,0,7.17,PT,1748465692
114,gebeit,21.0667,36.3167,25.76,30,42,1.39,SD,1748465693
115,baidoa,3.1138,43.6498,22.33,72,96,6.11,SO,1748465694
116,ouesso,1.6136,16.0517,22.92,88,94,0.49,CG,1748465695
117,west island,-12.1568,96.8225,26.99,83,75,6.17,CC,1748465697
118,sebastopol,44.6,33.5333,15.0,62,0,1.34,UA,1748465414
119,nuriootpa,-34.4833,139.0,10.87,86,35,1.82,AU,1748465699
120,talnakh,69.4865,88.3972,-11.16,98,96,0.84,RU,1748465700
121,mermoz boabab,14.7065,-17.4758,24.88,84,2,3.09,SN,1748465702
122,anapa,44.8908,37.3239,15.19,94,75,2.0,RU,1748465704
123,geraldton,-28.7667,114.6,21.23,37,100,12.35,AU,1748465705
124,st. john's,47.5649,-52.7093,17.31,55,75,6.17,CA,1748465706
125,margaret river,-33.95,115.0667,15.19,47,1,7.13,AU,1748465707
126,utrik,11.2278,169.8474,27.64,84,100,8.52,MH,1748465708
127,holualoa,19.6228,-155.9522,25.31,78,0,3.09,US,1748465709
128,xining,36.6167,101.7667,13.79,43,3,0.3,CN,1748465710
129,bada,51.392,109.8717,-0.38,89,82,2.08,RU,1748465711
130,marsabit,2.3284,37.9899,19.4,68,40,8.99,KE,1748465712
131,afaahiti,-17.75,-149.2833,25.38,83,73,8.72,PF,1748465713
132,anadyr,64.75,177.4833,2.28,64,75,3.0,RU,1748465715
133,benghazi,32.1167,20.0667,20.23,79,0,5.38,LY,1748465716
134,mazamari,-11.3258,-74.5308,28.63,63,31,1.0,PE,1748465717
135,micoud,13.8167,-60.9,27.34,45,73,0.89,LC,1748465718
136,phaltan,17.9833,74.4333,24.57,84,100,5.48,IN,1748465719
137,puerto ayora,-0.7393,-90.3518,25.86,95,99,1.34,EC,1748465720
138,port lincoln,-34.7333,135.8667,13.67,77,5,3.56,AU,1748465721
139,adrar,20.5022,-10.0711,35.57,10,0,4.57,MR,1748465722
140,naze,28.3667,129.4833,19.51,91,100,5.68,JP,1748465723
141,hawaiian paradise park,19.5933,-154.9731,27.23,63,75,3.6,US,1748465724
142,blackmans bay,-43.0167,147.3167,7.07,86,0,2.43,AU,1748465725
143,opuwo,-18.0607,13.84,16.92,37,0,3.11,NA,1748465726
144,magadan,59.5667,150.8,5.03,81,74,0.9,RU,1748465729
145,barah,13.7,30.3667,30.02,13,11,5.3,SD,1748465730
146,manokwari,-0.8667,134.0833,26.46,73,59,1.42,ID,1748465731
147,qaqortoq,60.7167,-46.0333,5.98,65,100,2.33,GL,1748465732
148,slobodskoy,58.7322,50.1772,14.62,77,0,2.32,RU,1748465733
149,zuenoula,7.4292,-6.0431,25.42,86,93,2.77,CI,1748465734
150,naama,33.2667,-0.3167,25.32,17,3,4.57,DZ,1748465735
151,weno,7.4515,151.8468,28.97,79,100,3.6,FM,1748465736
152,pleiku,13.9833,108.0,20.85,97,100,0.47,VN,1748465737
153,mount gambier,-37.8333,140.7667,8.83,93,1,2.1,AU,1748465738
154,mana,5.6592,-53.7767,25.87,90,81,4.09,GF,1748465739
155,puerto baquerizo moreno,-0.9,-89.6,27.55,74,75,6.69,EC,1748465741
156,sur,22.5667,59.5289,31.85,42,42,4.46,OM,1748465742
157,al jabin,14.704,43.599,25.71,49,47,1.53,YE,1748465743
158,grants,35.1473,-107.8514,27.13,6,0,1.54,US,1748465744
159,pontal do parana,-25.6533,-48.5128,13.97,100,75,9.77,BR,1748465745
160,castillos,-34.1667,-53.8333,10.13,62,23,6.05,UY,1748465747
161,san julian,21.0167,-102.1667,27.26,28,100,1.3,MX,1748465748
162,dwarka,22.2394,68.9678,28.99,77,100,4.83,IN,1748465749
163,kinablangan,7.6947,126.5503,24.05,87,100,2.23,PH,1748465750
164,vadso,70.0744,29.7487,12.09,66,75,6.69,NO,1748465751
165,nagqu,31.5,92.0,8.91,48,99,5.4,CN,1748465752
166,petropavlovsk-kamchatsky,53.0452,158.6483,7.33,61,0,3.0,RU,1748465753
167,diu,20.7141,70.9822,28.72,80,100,6.1,IN,1748465754
168,aykhal,66.0,111.5,-0.2,97,100,3.19,RU,1748465756
169,samfya,-11.3649,29.5565,18.42,71,34,3.05,ZM,1748465757
170,mejit,10.2753,170.8646,27.84,82,100,8.77,MH,1748465759
171,tambopata,-12.7333,-69.1833,31.94,70,40,1.03,PE,1748465760
172,revda,56.801,59.9303,12.98,79,28,2.13,RU,1748465761
173,remire-montjoly,4.9167,-52.2667,26.02,89,75,2.06,GF,1748465762
174,iqaluit,63.7506,-68.5145,-0.15,80,20,2.06,CA,1748465763
175,thompson,55.7435,-97.8558,25.09,38,100,4.12,CA,1748465764
176,zeya,53.75,127.2667,20.15,60,99,2.13,RU,1748465765
177,berdigestyakh,62.0989,126.6992,14.56,64,36,5.14,RU,1748465767
178,catumbela,-12.4314,13.5472,24.04,75,0,0.83,AO,1748465768
179,jinchang,38.4953,102.1739,16.07,23,100,3.42,CN,1748465769
180,bodo,67.28,14.405,9.14,90,75,2.57,NO,1748465770
181,ilulissat,69.2167,-51.1,5.01,65,92,4.12,GL,1748465771
182,ponta delgada,37.7333,-25.6667,19.4,82,20,4.12,PT,1748465772
183,merizo village,13.2658,144.6691,26.66,93,99,2.33,GU,1748465773
184,ladwa,29.9944,77.0444,29.28,61,0,3.11,IN,1748465774
185,belo sur tsiribihina,-19.7,44.55,20.13,89,0,2.08,MG,1748465775
186,jonuta,18.0833,-92.1333,39.11,29,100,4.53,MX,1748465777
187,pueblo,38.2545,-104.6091,25.83,35,100,5.08,US,1748465695
188,pelabuhanratu,-6.9875,106.5514,25.55,90,88,1.91,ID,1748465780
189,illizi,26.4833,8.4667,30.12,14,1,7.42,DZ,1748465781
190,tsiombe,-25.3,45.4833,18.98,93,0,2.19,MG,1748465783
191,ikalamavony,-21.15,46.5833,15.48,86,24,2.61,MG,1748465784
192,puerto deseado,-47.7503,-65.8938,7.58,61,71,3.18,AR,1748465785
193,chui,-33.6971,-53.4616,10.92,63,79,7.11,UY,1748465786
194,kolonia,50.9333,6.95,15.36,81,40,4.12,DE,1748465723
195,andreapol',56.6513,32.2664,15.79,75,76,3.97,RU,1748465789
196,nuuk,64.1835,-51.7216,1.34,93,100,2.57,GL,1748465791
197,tura,25.5198,90.2201,24.23,94,99,1.97,IN,1748465792
198,saint-pierre,-21.3393,55.4781,22.82,73,75,7.2,RE,1748465793
199,vilyuysk,63.7553,121.6247,13.62,84,93,3.47,RU,1748465794
200,lebu,-37.6167,-73.65,10.73,68,100,9.85,CL,1748465795
201,bodaybo,57.8506,114.1933,2.85,100,100,2.34,RU,1748465796
202,howrah,22.5892,88.3103,27.0,89,75,6.69,IN,1748465797
203,badger,64.8,-147.5333,16.67,48,75,1.54,US,1748465798
204,kaihua,23.3687,104.28,16.66,98,100,2.28,CN,1748465799
205,pithoro,25.5167,69.3833,31.8,62,43,8.3,PK,1748465800
206,kingston,17.997,-76.7936,32.88,70,40,10.8,JM,1748465801
207,dunblane,56.1884,-3.9642,12.83,76,100,1.95,GB,1748465802
208,gadzhiyevo,69.2551,33.3362,10.77,76,100,4.51,RU,1748465803
209,lebyazh'ye,55.2689,66.4947,16.55,81,47,3.08,RU,1748465804
210,baoqing,46.3317,132.2111,18.85,72,5,2.55,CN,1748465806
211,conde,-7.2597,-34.9075,25.7,94,20,2.06,BR,1748465807
212,marquette,46.5333,-87.6335,18.98,44,82,1.34,US,1748465808
213,tarauaca,-8.1614,-70.7656,28.92,72,57,0.82,BR,1748465809
214,thunder bay,48.4001,-89.3168,24.95,22,20,5.14,CA,1748465810
215,banda aceh,5.5577,95.3222,27.54,70,82,5.87,ID,1748465811
216,port alfred,-33.5906,26.891,21.44,51,0,5.46,ZA,1748465812
217,negapatam,10.7667,79.8333,29.43,60,100,5.57,IN,1748465813
218,antalaha,-14.9003,50.2788,22.29,84,9,3.21,MG,1748465814
219,happy valley-goose bay,53.3168,-60.3315,13.17,50,100,4.12,CA,1748465815
220,alice springs,-23.7,133.8833,8.75,100,100,3.6,AU,1748465816
221,udachny,66.4167,112.4,0.89,99,100,4.04,RU,1748465817
222,kuragino,53.8975,92.6725,1.82,97,100,5.82,RU,1748465818
223,timaru,-44.4,171.25,9.48,93,100,2.24,NZ,1748465820
224,khandud,36.9513,72.318,7.93,66,3,1.96,AF,1748465821
225,lihue,21.9789,-159.3672,26.77,57,20,4.12,US,1748465822
226,arkhangel'sk,64.5401,40.5433,17.06,72,75,3.0,RU,1748465823
227,fortuna,40.5982,-124.1573,17.77,72,100,0.0,US,1748465824
228,yuzhno-kurilsk,44.0306,145.8556,9.47,92,98,3.64,RU,1748465825
229,sitka,57.0531,-135.33,10.94,82,100,8.23,US,1748465826
230,susuman,62.7833,148.1667,14.97,43,10,1.31,RU,1748465827
231,betio village,1.358,172.9211,29.02,81,34,7.05,KI,1748465828
232,isafjordur,66.0755,-23.124,5.49,88,99,1.84,IS,1748465829
233,thinadhoo,0.5333,72.9333,28.17,75,51,4.61,MV,1748465830
234,pudozh,61.8099,36.5345,14.13,99,100,1.74,RU,1748465831
235,huarmey,-10.0681,-78.1522,21.78,75,56,5.3,PE,1748465832
236,battle ground,45.7809,-122.5334,28.84,43,7,2.24,US,1748465834
237,chonchi,-42.6128,-73.8092,9.51,94,100,1.22,CL,1748465835
238,constitucion,-35.3333,-72.4167,12.37,60,100,4.26,CL,1748465836
239,grand falls-windsor,48.9332,-55.6649,19.72,46,98,5.29,CA,1748465837
240,san antonio de pale,-1.4014,5.6325,25.46,87,59,3.62,GQ,1748465838
241,plouguerneau,48.6,-4.5,16.36,100,100,3.6,FR,1748465839
242,valparaiso,-33.0393,-71.6273,16.11,55,0,3.09,CL,1748465840
243,lakhdenpokh'ya,61.5198,30.1992,12.59,89,100,0.85,RU,1748465841
244,howard springs,-12.497,131.047,24.95,90,100,2.59,AU,1748465842
245,cabo san lucas,22.8909,-109.9124,33.17,27,20,3.09,MX,1748465145
246,bhilwara,25.35,74.6333,31.96,41,100,6.41,IN,1748465844
247,sumberpucung,-8.1586,112.4829,25.66,99,77,1.39,ID,1748465845
248,hithadhoo,-0.6,73.0833,28.9,71,100,5.49,MV,1748465846
249,santa ana de yacuma,-13.75,-65.4333,17.97,77,75,7.72,BO,1748465848
250,masuda,34.6667,131.85,16.49,56,100,1.22,JP,1748465849
251,santa catalina,9.3337,122.8637,26.89,83,100,1.81,PH,1748465852
252,loikaw,19.6742,97.2094,20.9,99,100,1.61,MM,1748465853
253,alofi,-19.0595,-169.9187,25.94,89,99,2.06,NU,1748465854
254,ulladulla,-35.35,150.4667,10.47,77,59,3.85,AU,1748465855
255,sao miguel do araguaia,-13.275,-50.1628,28.68,36,100,0.89,BR,1748465857
256,cova figueira,14.8905,-24.2934,20.51,59,2,4.0,CV,1748465858
257,asti,44.8979,8.2068,19.88,76,10,1.23,IT,1748465859
258,carupano,10.6678,-63.2585,27.3,79,60,6.07,VE,1748465860
259,carnarvon,-24.8667,113.6333,23.88,70,100,9.23,AU,1748465861
260,mount pearl,47.5166,-52.7813,16.85,57,75,6.17,CA,1748465862
261,bengkulu,-3.8004,102.2655,25.86,85,82,1.46,ID,1748465863
262,darwin,-12.4611,130.8418,24.99,88,40,3.09,AU,1748465864
263,dek'emhare,15.07,39.0475,21.38,40,2,2.65,ER,1748465865
264,yeppoon,-23.1333,150.7333,17.25,47,100,3.04,AU,1748465866
265,burang,30.25,81.1667,4.7,79,97,3.08,CN,1748465867
266,la passe,45.5549,-0.8967,17.93,87,88,2.58,FR,1748465868
267,acarau,-2.8856,-40.12,26.21,80,20,6.11,BR,1748465869
268,vredendal,-31.6683,18.5012,15.32,78,67,1.88,ZA,1748465871
269,kibaya,-5.3,36.5667,14.26,97,69,2.13,TZ,1748465874
270,katsuren-haebaru,26.3369,127.8719,23.21,90,100,9.26,JP,1748465875
271,miquelon,47.0975,-56.3814,7.45,79,100,10.93,PM,1748465876
272,malindi,-3.2175,40.1191,23.09,88,75,10.29,KE,1748465877
273,polva,58.0603,27.0694,13.71,94,100,2.13,EE,1748465878
274,talara,-4.5772,-81.2719,27.42,57,0,8.23,PE,1748465879
275,lensk,60.7253,114.9278,2.27,98,100,3.44,RU,1748465881
276,paragominas,-2.9667,-47.4833,26.95,75,32,1.6,BR,1748465882
277,keflavik,64.0049,-22.5624,10.24,66,75,4.63,IS,1748465883
278,paita,-5.0892,-81.1144,23.06,75,16,7.17,PE,1748465884
279,jinka,5.65,36.65,17.53,87,88,1.3,ET,1748465885
280,san lawrenz,36.0553,14.204,19.36,87,29,6.26,MT,1748465886
281,kudat,6.8837,116.8477,25.96,94,40,2.68,MY,1748465887
282,guaratinga,-16.5667,-39.5667,23.88,91,100,1.78,BR,1748465888
283,beira,-19.8436,34.8389,22.05,88,0,2.68,MZ,1748465889
284,sann,26.0418,68.1378,34.9,36,52,4.21,PK,1748465890
285,bereeda,11.8704,51.0579,30.19,63,71,2.4,SO,1748465891
286,shenjiamen,29.9576,122.298,17.63,84,87,4.01,CN,1748465892
287,akureyri,65.6835,-18.0878,7.96,93,75,4.12,IS,1748465894
288,minas de marcona,-15.2119,-75.1103,17.47,60,0,6.88,PE,1748465895
289,buala,-8.145,159.5921,27.98,81,30,1.65,SB,1748465896
290,mogocha,53.7333,119.7667,16.38,54,46,1.73,RU,1748465897
291,komoro,36.3167,138.4333,15.41,78,100,0.22,JP,1748465898
292,la mira,18.035,-102.3266,29.52,65,99,5.46,MX,1748465899
293,saipan,15.1355,145.701,27.39,91,0,1.54,MP,1748465900
294,maragogi,-9.0122,-35.2225,24.95,85,8,1.96,BR,1748465901
295,constantia,44.1833,28.65,14.38,86,98,3.14,RO,1748465902
296,kratovo,42.0792,22.1814,12.39,68,1,3.68,MK,1748465904
297,port hueneme,34.1478,-119.1951,21.08,75,100,5.66,US,1748465841
298,tulum,20.2167,-87.4667,31.06,74,99,3.13,MX,1748465908
299,tvoroyri,61.5556,-6.8111,9.07,83,8,6.93,FO,1748465909
300,la'ie,21.6477,-157.9253,27.66,65,13,1.79,US,1748465910
301,royan,45.6285,-1.0281,17.64,86,97,2.76,FR,1748465911
302,melenci,45.5139,20.3172,17.49,70,85,2.43,RS,1748465912
303,yorkton,51.2167,-102.4677,24.91,25,0,5.66,CA,1748465913
304,tindouf,27.6711,-8.1474,37.25,12,40,3.6,DZ,1748465914
305,arsin,40.9496,39.9276,15.74,82,75,3.09,TR,1748465915
306,pierre,44.3683,-100.351,20.15,51,100,3.6,US,1748465916
307,puerto armuelles,8.2833,-82.8667,28.38,78,63,1.79,PA,1748465917
308,namtsy,62.7161,129.6658,15.72,60,1,5.65,RU,1748465918
309,nadym,65.5333,72.5167,2.45,99,100,4.01,RU,1748465920
310,vila franca do campo,37.7167,-25.4333,19.23,88,90,3.08,PT,1748465921
311,nguruka,-5.1092,31.0419,21.08,68,85,1.45,TZ,1748465922
312,yung shue wan,22.2333,114.1167,26.49,90,98,4.64,HK,1748465923
313,klyuchi,52.2667,79.1667,7.93,55,99,2.52,RU,1748465924
314,sisimiut,66.9395,-53.6735,2.37,80,100,5.67,GL,1748465925
315,praia da vitoria,38.7333,-27.0667,21.14,73,40,6.26,PT,1748465926
316,nova vicosa,-17.8919,-39.3719,23.78,92,93,3.77,BR,1748465927
317,hirara,24.8,125.2833,24.92,100,75,3.09,JP,1748465928
318,kupang,-10.1667,123.5833,26.32,94,75,2.06,ID,1748465929
319,kaoma,-14.7833,24.8,14.31,54,1,2.69,ZM,1748465930
320,yoko,5.5333,12.3167,19.72,92,100,1.44,CM,1748465931
321,natal,-5.795,-35.2094,29.12,70,40,6.69,BR,1748465933
322,altai,46.3722,96.2583,5.06,23,56,3.6,MN,1748465934
323,dunedin,-45.8742,170.5036,9.33,99,100,4.02,NZ,1748465935
324,valguarnera caropepe,37.4955,14.3888,16.55,69,91,2.05,IT,1748465936
325,bathsheba,13.2167,-59.5167,30.34,70,40,8.75,BB,1748465937
326,changji,44.0167,87.3167,14.44,58,0,3.0,CN,1748465938
327,kimbe,-5.5502,150.1429,24.94,87,95,1.57,PG,1748465939
328,iskateley,67.6803,53.1512,9.93,75,21,2.95,RU,1748465940
329,shakawe,-18.3667,21.85,15.55,43,0,2.26,BW,1748465941
330,queenstown,-31.8976,26.8753,15.26,38,0,5.05,ZA,1748465942
331,broken hill,-31.95,141.4333,6.92,89,100,4.27,AU,1748465943
332,kristiansund,63.1115,7.732,10.36,66,0,5.14,NO,1748465944
333,belle fourche,44.6714,-103.8522,18.73,48,5,6.93,US,1748465945
334,itaituba,-4.2761,-55.9836,33.09,58,20,0.0,BR,1748465947
335,road town,18.4167,-64.6167,29.02,65,75,5.66,VG,1748465816
336,vila velha,-20.3297,-40.2925,23.97,88,40,1.54,BR,1748465949
337,al hazm,16.1641,44.7769,28.32,44,74,4.34,YE,1748465950
338,camp verde,34.5636,-111.8543,35.7,7,67,7.57,US,1748465951
339,santa cruz,-17.8,-63.1667,19.03,39,75,11.32,BO,1748465952
340,shiguai,40.7058,110.2856,15.81,45,92,2.52,CN,1748465953
341,morant bay,17.8815,-76.4093,31.76,71,3,5.47,JM,1748465954
342,ndele,8.4109,20.6473,22.44,89,100,1.32,CF,1748465955
343,bouar,5.934,15.596,19.53,91,79,1.07,CF,1748465956
344,isangel,-19.55,169.2667,20.06,100,20,0.51,VU,1748465957
345,fale old settlement,-9.3852,-171.2468,28.56,79,100,7.42,TK,1748465958
346,sibolga,1.7427,98.7792,25.58,91,38,1.31,ID,1748465959
347,sogndal,61.2283,7.1003,9.21,93,75,4.12,NO,1748465961
348,usinsk,65.9939,57.5281,12.34,85,99,4.48,RU,1748465962
349,miyazu,35.5333,135.1833,15.83,85,100,1.14,JP,1748465963
350,mossel bay,-34.1831,22.146,18.91,48,0,5.03,ZA,1748465964
351,qamdo,31.1667,97.2333,7.72,52,38,2.46,CN,1748465965
352,yaren,-0.5472,166.916,28.43,77,48,6.2,NR,1748465966
353,yeraliyev,43.2,51.65,21.78,29,5,5.83,KZ,1748465967
354,chiredzi,-21.05,31.6667,15.43,63,0,1.39,ZW,1748465968
355,southeast arcadia,27.1863,-81.8521,33.27,58,100,3.25,US,1748465969
356,villa regina,-39.1,-67.0667,13.32,15,87,0.89,AR,1748465970
357,niquelandia,-14.4739,-48.4597,25.09,37,91,1.56,BR,1748465971
358,ajdabiya,30.7554,20.2263,20.1,76,0,4.06,LY,1748465972
359,tirumala,13.6833,79.35,23.13,65,100,6.57,IN,1748465974
360,cestos city,5.46,-9.5828,25.74,89,97,2.76,LR,1748465975
361,sidi akkacha,36.4647,1.3026,29.16,47,48,2.07,DZ,1748465976
362,acapulco de juarez,16.8634,-99.8901,25.82,72,100,0.64,MX,1748465977
363,rikaze,29.25,88.8833,12.91,45,6,2.31,CN,1748465978
364,tucuma,-0.1833,-50.05,27.41,80,6,4.48,BR,1748465979
365,wanning,18.8003,110.3967,26.04,90,99,1.64,CN,1748465981
366,vernon,50.2581,-119.2691,30.97,38,14,1.54,CA,1748465982
367,tromso,69.6496,18.957,11.01,66,75,5.66,NO,1748465983
368,puerto lempira,15.2667,-83.7667,32.08,62,40,7.2,HN,1748465984
369,portland,45.5234,-122.6762,29.04,43,20,4.63,US,1748465870
370,lake city,30.1897,-82.6393,33.72,51,75,3.6,US,1748465988
371,kulhudhuffushi,6.6221,73.07,28.71,83,100,10.42,MV,1748465989
372,morondava,-20.2833,44.2833,22.37,80,0,3.78,MG,1748465990
373,saint-imier,47.1528,6.9969,13.27,94,75,3.09,CH,1748465991
374,cherykaw,53.5692,31.3793,15.06,91,100,4.82,BY,1748465992
375,codrington,-38.2667,141.9667,11.13,85,0,4.54,AU,1748465993
376,puerto ayacucho,5.6639,-67.6236,31.2,71,82,1.51,VE,1748465994
377,sarkand,45.41,79.9186,13.39,43,99,2.34,KZ,1748465995
378,hargeysa,9.56,44.065,23.6,54,21,7.82,SO,1748465997
379,palikir - national government center,6.9248,158.1611,26.63,94,100,6.13,FM,1748465998
380,kshenskiy,51.8408,37.7136,17.5,63,100,5.44,RU,1748465999
381,malango,-2.9627,119.9001,17.92,97,24,1.36,ID,1748466000
382,matoury,4.8483,-52.3317,25.98,89,75,2.06,GF,1748466001
383,kiama,-34.6833,150.8667,13.1,72,100,2.24,AU,1748466002
384,machico,32.7,-16.7667,19.35,63,40,3.09,PT,1748466003
385,prince rupert,54.3161,-130.3201,12.05,94,100,13.38,CA,1748466004
386,berezovyy,51.6667,135.7,15.01,98,100,1.2,RU,1748466005
387,pindushi,62.9152,34.58,12.51,98,100,2.11,RU,1748466006
388,fort mcmurray,56.7268,-111.381,29.77,23,0,5.14,CA,1748465750
389,qianzhou,28.3167,109.7167,15.69,97,7,0.94,CN,1748466008
390,tazacorte,28.629,-17.9293,19.54,90,100,5.14,ES,1748466009
391,choibalsan,48.0667,114.5,12.33,51,100,7.71,MN,1748466011
392,mersa matruh,31.3525,27.2453,19.11,82,0,5.66,EG,1748466012
393,ust-nera,64.5667,143.2,17.43,42,35,1.94,RU,1748466013
394,al mijlad,11.0333,27.7333,33.32,30,8,3.2,SD,1748466014
395,awjilah,29.1081,21.2869,22.39,35,0,5.19,LY,1748466015
396,misratah,32.3754,15.0925,20.69,69,0,6.85,LY,1748466016
397,luderitz,-26.6481,15.1594,15.75,79,0,2.69,NA,1748466017
398,ginir,7.1333,40.7,14.99,82,86,2.74,ET,1748466018
399,cockburn town,21.4612,-71.1419,27.22,76,9,7.27,TC,1748466019
400,lerwick,60.1545,-1.1494,9.32,85,2,5.32,GB,1748466020
401,touros,-5.1989,-35.4608,26.22,80,19,5.21,BR,1748466021
402,oltinko'l,40.8011,72.1634,18.21,68,4,2.06,UZ,1748466022
403,saint-philippe,-21.3585,55.7679,23.22,78,91,6.37,RE,1748466023
404,rundu,-17.9333,19.7667,14.48,45,0,2.62,NA,1748466025
405,takoradi,4.8845,-1.7554,26.13,85,100,4.16,GH,1748466026
406,jijiang,29.2906,106.2542,19.32,91,12,0.62,CN,1748466027
407,barra,-11.0894,-43.1417,26.73,36,0,1.37,BR,1748466028
408,xiaoweizhai,26.1903,107.5125,16.56,97,100,1.37,CN,1748466029
409,ulsteinvik,62.3432,5.8487,9.62,84,13,2.24,NO,1748466030
410,sandnessjoen,66.0217,12.6316,10.23,71,20,7.72,NO,1748466031
411,zhumysker,49.3333,49.4,22.61,37,62,6.6,KZ,1748466032
412,richfield,44.8833,-93.283,15.81,80,100,1.54,US,1748466033
413,new norfolk,-42.7826,147.0587,4.7,97,23,1.84,AU,1748466034
414,embrun,44.5639,6.4953,13.11,79,23,1.75,FR,1748466035
415,nchelenge,-9.3451,28.734,22.69,66,70,1.71,ZM,1748466036
416,onguday,50.75,86.15,3.33,99,100,2.3,RU,1748466037
417,el rama,12.1596,-84.2195,29.67,80,100,4.64,NI,1748466039
418,wittlich,49.9833,6.8833,15.2,77,100,2.06,DE,1748466040
419,la penita de jaltomba,21.0333,-105.25,29.36,55,99,3.56,MX,1748466041
420,rio grande,-32.035,-52.0986,13.04,79,100,11.32,BR,1748466042
421,chake chake,-5.2459,39.7666,24.81,84,37,5.74,TZ,1748466043
422,krasnovishersk,60.4078,57.082,13.99,80,0,0.82,RU,1748466044
423,bayanhongor,46.7167,100.1167,0.41,29,7,1.73,MN,1748466045
424,filingue,14.3521,3.3168,36.12,22,47,2.01,NE,1748466046
425,tsetserleg,47.475,101.4542,1.56,40,4,1.7,MN,1748466047
426,lionel town,17.8101,-77.2406,31.83,64,11,6.54,JM,1748466048
427,fort polk south,31.0511,-93.2158,25.01,94,100,0.0,US,1748466049
428,kudymkar,59.0173,54.656,14.4,83,0,2.94,RU,1748466050
429,ust'-ilimsk,58.0006,102.6619,-0.84,71,20,0.62,RU,1748466051
430,menongue,-14.6585,17.691,13.35,53,0,1.89,AO,1748466053
431,halifax,44.6453,-63.5724,25.38,37,20,5.14,CA,1748466001
432,afif,23.9065,42.9172,29.27,10,1,8.01,SA,1748466055
433,agia varvara,37.9833,23.6667,21.05,66,20,1.79,GR,1748466056
434,flying fish cove,-10.4217,105.6791,24.82,100,50,1.54,CX,1748466057
435,mezhdurechensk,53.6942,88.0603,0.46,96,96,3.44,RU,1748466058
436,okhotsk,59.3833,143.3,4.24,84,65,2.01,RU,1748466059
437,santo antonio,-6.3106,-35.4789,23.8,88,3,4.22,BR,1748466060
438,seminole,28.7086,-81.2081,34.12,62,100,0.45,US,1748466061
439,lastoursville,-0.8143,12.7287,23.45,95,85,0.89,GA,1748466062
440,maru,12.3342,6.4057,29.48,46,72,6.34,NG,1748466063
441,iho,5.5667,7.1,24.05,95,50,2.29,NG,1748466065
442,sokoni,-6.4333,39.55,26.7,78,83,8.36,TZ,1748466067
443,thika,-1.0333,37.0693,14.9,96,79,0.81,KE,1748466068
444,hovd,48.0056,91.6419,9.71,37,0,2.4,MN,1748466069
445,kingscliff,-28.2667,153.5667,14.89,67,100,1.54,AU,1748466070
446,ganjam,19.3833,85.0667,28.1,80,100,1.67,IN,1748466071
447,bac lieu,9.285,105.7244,27.51,86,100,2.94,VN,1748466072
448,paseh,-7.1026,107.7641,26.05,83,55,1.14,ID,1748466073
449,tazovsky,67.4667,78.7,-3.32,97,100,5.79,RU,1748466074
450,tamandare,-8.7597,-35.1047,25.25,84,16,2.55,BR,1748466075
451,middle island,40.8843,-72.9373,17.13,62,100,3.6,US,1748466076
452,torghay,49.6339,63.4981,21.29,48,66,4.2,KZ,1748466077
453,sarkikaraagac,38.0794,31.3664,14.49,55,52,2.06,TR,1748466078
454,murrells inlet,33.551,-79.0414,30.05,71,27,4.16,US,1748466079
455,crane,31.3974,-102.3501,30.57,29,1,2.14,US,1748466081
456,pascagoula,30.3658,-88.5561,30.56,66,35,3.95,US,1748466082
457,vilyuchinsk,52.9306,158.4028,8.15,65,8,1.41,RU,1748466083
458,palembang,-2.9167,104.7458,25.05,100,20,1.03,ID,1748466010
459,salinas de hidalgo,22.6333,-101.7167,28.82,23,68,2.97,MX,1748466085
460,namdrik,5.5994,168.1028,28.14,81,32,7.72,MH,1748466086
461,barclayville,4.6797,-8.2339,25.15,90,100,2.43,LR,1748466087
462,conception bay south,47.4999,-52.9981,17.18,57,100,4.77,CA,1748466088
463,east london,-33.0153,27.9116,23.75,36,0,4.06,ZA,1748466089
464,manggar,-2.8833,108.2667,28.02,81,92,3.72,ID,1748466090
465,forster,-32.1667,152.5167,12.0,77,100,4.95,AU,1748466091
466,kavieng,-2.5744,150.7967,28.0,77,53,3.04,PG,1748466092
467,pozanti,37.4278,34.8717,15.3,70,16,1.17,TR,1748466093
468,kuqa,41.7278,82.9364,19.19,29,8,3.06,CN,1748466095
469,arfoud,31.4348,-4.2375,30.34,13,23,3.07,MA,1748466096
470,ogulin,45.2661,15.2286,16.26,79,100,1.38,HR,1748466097
471,weyburn,49.6668,-103.8511,22.12,33,5,6.17,CA,1748466098
472,colonia,50.9333,6.95,15.36,82,40,4.12,DE,1748466003
473,peace river,56.2501,-117.286,28.17,26,0,7.2,CA,1748466100
474,aioun,16.6614,-9.6149,36.75,8,56,4.41,MR,1748466101
475,byron bay,-28.65,153.6167,14.23,76,100,3.93,AU,1748466102
476,nieuw amsterdam,5.8833,-55.0833,30.01,74,40,3.09,SR,1748466103
477,zaranj,30.9667,61.8833,26.96,16,0,8.79,AF,1748466105
478,horta,38.5333,-28.6333,18.9,94,75,8.75,PT,1748466107
479,tommot,58.9564,126.2925,16.03,78,44,1.85,RU,1748466108
480,ringkobing,56.0901,8.244,10.36,87,4,5.5,DK,1748466109
481,cabedelo,-6.9811,-34.8339,26.37,83,10,5.13,BR,1748466082
482,ust'-kulom,61.6864,53.6902,16.62,68,100,0.73,RU,1748466111
483,shetpe,44.1667,52.1167,21.01,25,20,4.57,KZ,1748466112
484,brandon,27.9378,-82.2859,35.61,52,0,3.6,US,1748466113
485,tangalle,6.024,80.7911,25.94,91,100,7.58,LK,1748466114
486,orcopampa,-15.2661,-72.3417,12.68,21,48,4.38,PE,1748466115
487,ad darb,17.7229,42.2526,27.72,81,1,2.51,SA,1748466116
488,zyrya,40.3661,50.2917,19.05,65,4,2.24,AZ,1748466117
489,miles city,46.4083,-105.8406,23.69,29,2,5.52,US,1748466118
490,churapcha,62.0025,132.4325,13.9,47,4,6.26,RU,1748466119
491,savyntsi,49.4026,37.0627,19.75,48,100,4.67,UA,1748466121
492,quang ngai,15.1167,108.8,25.4,88,100,1.83,VN,1748466002
493,barra do garcas,-15.89,-52.2567,20.32,100,75,0.0,BR,1748466123
494,madang,-5.2246,145.7966,25.16,91,48,0.46,PG,1748466124
495,ancud,-41.8697,-73.8203,9.45,82,95,1.93,CL,1748466125
496,arar,30.9753,41.0381,30.01,7,0,3.09,SA,1748466126
497,san juan,-31.5375,-68.5364,13.75,36,0,1.75,AR,1748466127
498,ugoofaaru,5.6667,73.0,28.67,83,100,9.92,MV,1748466128
499,kone,-21.0595,164.8658,22.14,85,23,0.49,NC,1748466129
500,taoudenni,22.6783,-3.9836,33.73,7,2,5.12,ML,1748466130
501,vangaindrano,-23.35,47.6,19.43,89,35,1.14,MG,1748466131
502,torrington,41.8007,-73.1212,20.42,50,100,0.89,US,1748466017
503,onega,63.9061,38.1404,13.9,97,100,3.39,RU,1748466133
504,kaka,37.3482,59.6143,23.02,29,15,2.42,TM,1748466135
505,paracuru,-3.41,-39.0306,26.25,78,29,4.61,BR,1748466136
506,xilin hot,43.9667,116.0333,18.42,35,57,6.4,CN,1748466137
507,aginskoye,51.1,114.53,4.03,68,100,7.32,RU,1748466138
508,egilsstadir,65.2653,-14.3948,8.95,71,75,4.63,IS,1748466139
509,saint joseph,39.7686,-94.8466,21.81,54,20,0.0,US,1748466140
510,vyaz'ma,55.2104,34.2951,14.25,83,2,3.3,RU,1748466141
511,bardai,11.65,7.2333,27.19,56,59,4.78,NG,1748466142
512,ust'-talovka,50.5493,81.85,3.76,91,63,2.54,KZ,1748466143
513,tarrafal de sao nicolau,16.5667,-24.3667,21.58,89,1,6.35,CV,1748466144
514,nuku'alofa,-21.1333,-175.2,25.19,94,20,1.03,TO,1748466145
515,dul'durga,50.6761,113.5931,3.16,71,79,4.77,RU,1748466146
516,alaghsas,17.0187,8.0168,34.99,16,42,4.45,NE,1748466147
517,conduaga,8.862,117.4893,26.58,83,100,2.1,PH,1748466148
518,preobrazheniye,42.9019,133.9064,14.88,80,45,3.5,RU,1748466150
519,itambe,-15.245,-40.6244,22.47,68,64,1.18,BR,1748466151
520,enewetak,11.3474,162.3373,27.88,81,100,8.17,MH,1748466152
521,nikolayevsk-on-amure,53.1406,140.73,8.9,93,100,2.04,RU,1748466153
522,changping,40.2186,116.2197,20.31,37,2,0.93,CN,1748466154
523,karatuzskoye,53.6072,92.8667,1.71,99,100,3.01,RU,1748466155
524,half moon,34.826,-77.4594,29.48,67,75,2.57,US,1748466156
525,polyarnyy,69.1989,33.4478,10.43,77,100,4.77,RU,1748466157
526,verkhovazh'ye,60.7472,42.0465,16.67,72,100,3.07,RU,1748466158
527,rosarito,32.3333,-117.0333,21.51,69,100,4.82,MX,1748466159
528,jayapura,-2.5333,140.7,25.66,93,100,2.46,ID,1748466160
529,slavyanka,42.8633,131.3847,11.48,82,6,0.81,RU,1748466161
530,carora,10.1755,-70.0827,33.72,28,60,9.59,VE,1748466162
531,belozersk,60.0326,37.7957,15.41,67,100,4.55,RU,1748466163
532,taltal,-25.4,-70.4833,17.07,79,31,1.22,CL,1748466165
533,bonthe,7.5264,-12.505,26.76,84,93,2.61,SL,1748466166
534,ciudad lazaro cardenas,17.9583,-102.2,30.18,63,98,6.46,MX,1748465901
535,argo,37.6333,22.7333,18.96,75,100,1.59,GR,1748466168
536,oak grove,45.4168,-122.6401,28.75,45,6,4.02,US,1748466169
537,fort st. john,56.2499,-120.8529,26.94,28,40,5.66,CA,1748466170
538,turkmenbasy,40.0222,52.9552,20.43,34,0,2.06,TM,1748466171
539,natchez,31.5604,-91.4032,27.89,72,40,3.6,US,1748465988
540,arraial do cabo,-22.9661,-42.0278,25.92,73,0,4.63,BR,1748466173
541,dryden,49.7833,-92.7503,22.16,30,40,3.09,CA,1748466174
542,kathu,7.9178,98.3332,26.9,81,99,6.38,TH,1748466175
543,aldan,58.6031,125.3894,16.97,65,84,1.63,RU,1748466176
544,anaconda,46.1285,-112.9423,22.66,35,17,3.31,US,1748466177
545,karmaskaly,54.3709,56.1837,10.95,78,14,1.43,RU,1748466054
546,taksimo,56.3444,114.8794,4.16,91,100,2.78,RU,1748466180
547,page,36.9147,-111.4558,32.29,12,3,1.79,US,1748466082
548,kavaratti,10.5669,72.642,28.46,81,100,13.06,IN,1748466182
549,kyabe,9.4515,18.9449,26.85,59,100,2.25,TD,1748466183
550,kyren,51.6828,102.1408,-1.92,91,31,1.14,RU,1748466184
551,urangan,-25.3,152.9,16.58,55,100,3.86,AU,1748466185
552,talayuela,39.987,-5.6098,24.58,36,0,2.58,ES,1748466186
553,kapchorwa,1.3965,34.4509,14.18,88,92,1.9,UG,1748466187
554,sabalgarh,26.25,77.4,33.63,44,36,2.12,IN,1748466188
555,ta`u,-14.2336,-169.5144,28.08,80,56,7.96,AS,1748466189
556,portoferraio,42.8115,10.3146,19.18,76,100,3.26,IT,1748466190
557,sikonge,-5.6333,32.7667,21.42,59,94,1.63,TZ,1748466191
558,znamenka,52.4167,41.4311,15.8,59,0,4.68,RU,1748466192
559,westport,41.1415,-73.3579,18.49,60,100,3.6,US,1748466193
560,severo-yeniseyskiy,60.3725,93.0408,-5.35,88,35,1.3,RU,1748466195
561,pisco,-13.7,-76.2167,22.03,60,0,6.69,PE,1748466196
562,angaur state,6.906,134.13,28.8,74,100,2.8,PW,1748466197
563,corinto,37.9407,22.9573,17.16,76,100,2.9,GR,1748466198
564,ajaccio,42.0,8.9167,15.95,83,0,1.54,FR,1748466199
565,puerto la cruz,10.2167,-64.6167,27.5,78,26,7.54,VE,1748466200
566,copperas cove,31.1241,-97.9031,26.28,77,75,6.69,US,1748466201
567,spanish springs,39.6491,-119.7074,31.21,12,0,3.58,US,1748466202
568,tayzhina,53.6679,87.4362,-0.25,93,87,2.69,RU,1748466203
569,kirakira,-10.4544,161.9205,27.86,82,13,1.67,SB,1748466204
570,abeche,13.8292,20.8324,32.12,13,91,4.25,TD,1748466205
571,shingu,33.7333,135.9833,18.15,88,100,2.26,JP,1748466206
572,antsiranana,-12.2787,49.2917,24.44,74,59,4.77,MG,1748466207
573,qalat,32.1058,66.9083,18.89,14,0,2.86,AF,1748466208
574,leua,48.2156,18.6071,15.17,83,92,5.5,SK,1748466210
575,ghormach,35.7306,63.7826,19.55,23,0,3.48,AF,1748466211
576,bandon,51.7469,-8.7425,12.77,94,100,7.76,IE,1748466212
577,hurricane,37.1753,-113.2899,34.71,12,0,2.24,US,1748466213
578,tuy hoa,13.0833,109.3,24.67,98,100,2.16,VN,1748466215
579,san marcos,33.1434,-117.1661,22.44,72,100,5.66,US,1748466216
